{
  "_meta": {
    "description": "Quick lookup table for Montreal's 19 boroughs and 15 reconstituted municipalities",
    "generated": "2026-03-13",
    "source": "Ville de Montréal"
  },
  "boroughs": [
    {"code": "AHU", "name": "Ahuntsic-Cartierville", "short": "Ahuntsic", "lat": 45.548, "lon": -73.662},
    {"code": "ANJ", "name": "Anjou", "short": "Anjou", "lat": 45.601, "lon": -73.558},
    {"code": "CDN", "name": "Côte-des-Neiges–Notre-Dame-de-Grâce", "short": "CDN-NDG", "lat": 45.479, "lon": -73.625},
    {"code": "LAC", "name": "Lachine", "short": "Lachine", "lat": 45.437, "lon": -73.680},
    {"code": "LAS", "name": "LaSalle", "short": "LaSalle", "lat": 45.432, "lon": -73.632},
    {"code": "PLA", "name": "Le Plateau-Mont-Royal", "short": "Plateau", "lat": 45.523, "lon": -73.574},
    {"code": "LSO", "name": "Le Sud-Ouest", "short": "Sud-Ouest", "lat": 45.476, "lon": -73.580},
    {"code": "IBI", "name": "L'Île-Bizard–Sainte-Geneviève", "short": "Île-Bizard", "lat": 45.498, "lon": -73.866},
    {"code": "MHM", "name": "Mercier–Hochelaga-Maisonneuve", "short": "HoMa", "lat": 45.558, "lon": -73.537},
    {"code": "MTN", "name": "Montréal-Nord", "short": "Mtl-Nord", "lat": 45.596, "lon": -73.614},
    {"code": "OUT", "name": "Outremont", "short": "Outremont", "lat": 45.518, "lon": -73.610},
    {"code": "PRF", "name": "Pierrefonds-Roxboro", "short": "Pierrefonds", "lat": 45.489, "lon": -73.834},
    {"code": "RDP", "name": "Rivière-des-Prairies–Pointe-aux-Trembles", "short": "RDP-PAT", "lat": 45.631, "lon": -73.524},
    {"code": "RPP", "name": "Rosemont–La Petite-Patrie", "short": "Rosemont", "lat": 45.542, "lon": -73.585},
    {"code": "STL", "name": "Saint-Laurent", "short": "Saint-Laurent", "lat": 45.503, "lon": -73.709},
    {"code": "SLE", "name": "Saint-Léonard", "short": "Saint-Léonard", "lat": 45.581, "lon": -73.595},
    {"code": "VER", "name": "Verdun", "short": "Verdun", "lat": 45.454, "lon": -73.571},
    {"code": "VIM", "name": "Ville-Marie", "short": "Downtown", "lat": 45.508, "lon": -73.561},
    {"code": "VSE", "name": "Villeray–Saint-Michel–Parc-Extension", "short": "Villeray", "lat": 45.558, "lon": -73.616}
  ],
  "municipalities": [
    {"name": "Baie-D'Urfé", "type": "reconstituted"},
    {"name": "Beaconsfield", "type": "reconstituted"},
    {"name": "Côte-Saint-Luc", "type": "reconstituted"},
    {"name": "Dollard-Des Ormeaux", "type": "reconstituted"},
    {"name": "Dorval", "type": "reconstituted"},
    {"name": "Hampstead", "type": "reconstituted"},
    {"name": "Kirkland", "type": "reconstituted"},
    {"name": "L'Île-Dorval", "type": "reconstituted"},
    {"name": "Montréal-Est", "type": "reconstituted"},
    {"name": "Montréal-Ouest", "type": "reconstituted"},
    {"name": "Mont-Royal", "type": "reconstituted"},
    {"name": "Pointe-Claire", "type": "reconstituted"},
    {"name": "Sainte-Anne-de-Bellevue", "type": "reconstituted"},
    {"name": "Senneville", "type": "reconstituted"},
    {"name": "Westmount", "type": "reconstituted"}
  ],
  "aliases": {
    "downtown": "VIM",
    "centre-ville": "VIM",
    "the plateau": "PLA",
    "le plateau": "PLA",
    "mile end": "PLA",
    "old montreal": "VIM",
    "vieux-montréal": "VIM",
    "the village": "VIM",
    "griffintown": "LSO",
    "little italy": "RPP",
    "petite-italie": "RPP",
    "homa": "MHM",
    "ndg": "CDN",
    "côte-des-neiges": "CDN",
    "notre-dame-de-grâce": "CDN",
    "the west island": ["PRF", "IBI"],
    "verdun": "VER",
    "rosemont": "RPP",
    "saint-henri": "LSO",
    "pointe-saint-charles": "LSO",
    "parc-extension": "VSE",
    "villeray": "VSE",
    "saint-michel": "VSE",
    "hochelaga": "MHM",
    "maisonneuve": "MHM",
    "ahuntsic": "AHU",
    "cartierville": "AHU",
    "rivière-des-prairies": "RDP",
    "pointe-aux-trembles": "RDP"
  }
}
